Adafruit GPS library basic test!
	⸮
S⸮&&⸮⸮$P⸮-⸮⸮⸮liS⸮$PGACK,33,1*6F
$PGTOP,11,2*6E
$GPGGA,030525.354,3754.4082,S,14508.0686,E,1,7,1.34,103.4,M,-4.1,M,,*56
$GPRMC,030525.354,A,3754.4082,S,14508.0686,E,0.27,163.03,280317,,,A*76
$PMTK705,AXN_2.31_3339_13082100,5458,PA6H,1.0*69
$PGTOP,11,2*6E
$GPGGA,030526.354,3754.4083,S,14508.0690,E,1,7,1.34,103.4,M,-4.1,M,,*53
$GPRMC,030526.354,A,3754.4083,S,14508.0690,E,0.32,122.59,280317,,,A*7D

Time: 3:5:26.353
Date: 28/3/2017
Fix: 1 quality: 1
Location: 3754.4082S, 14508.0693E
Location (in degrees, works with Google Maps): -37.9068, 145.1345
Speed (knots): 0.32
Angle: 122.59
Altitude: 103.40
Satellites: 7
$PGTOP,11,2*6E
$GPGGA,030527.355,3754.4089,S,14508.0662,E,1,5,1.91,103.5,M,-4.1,M,,*58
$GPRMC,030527.355,A,3754.4089,S,14508.0662,E,1.20,94.80,280317,,,A*40

Time: 3:5:27.357
Date: 28/3/2017
Fix: 1 quality: 1
Location: 3754.4089S, 14508.0664E
Location (in degrees, works with Google Maps): -37.9068, 145.1344
Speed (knots): 1.20
Angle: 94.80
Altitude: 103.50
Satellites: 5
$PGTOP,11,2*6E
$GPGGA,030529.000,3754.4091,S,14508.0667,E,1,7,1.34,103.5,M,-4.1,M,,*54
$GPRMC,030529.000,A,3754.4091,S,14508.0667,E,1.46,70.15,280317,,,A*47
$PGTOP,11,2*6E
$GPGGA,030530.000,3754.4090,S,14508.0690,E,1,7,1.34,103.6,M,-4.1,M,,*56
$GPRMC,030530.000,A,3754.4090,S,14508.0690,E,2.60,79.41,280317,,,A*49

Time: 3:5:30.0
Date: 28/3/2017
Fix: 1 quality: 1
Location: 3754.4089S, 14508.0693E
Location (in degrees, works with Google Maps): -37.9068, 145.1345
Speed (knots): 2.60
Angle: 79.41
Altitude: 103.60
Satellites: 7
$PGTOP,11,2*6E
$GPGGA,030531.000,3754.4091,S,14508.0718,E,1,7,1.34,103.6,M,-4.1,M,,*57
$GPRMC,030531.000,A,3754.4091,S,14508.0718,E,2.84,83.34,280317,,,A*45
$PGTOP,11,2*6E
$GPGGA,030532.000,3754.4091,S,14508.0732,E,1,7,1.34,103.6,M,-4.1,M,,*5C
$GPRMC,030532.000,A,3754.4091,S,14508.0732,E,2.41,88.51,280317,,,A*4F

Time: 3:5:32.0
Date: 28/3/2017
Fix: 1 quality: 1
Location: 3754.4091S, 14508.0732E
Location (in degrees, works with Google Maps): -37.9068, 145.1345
Speed (knots): 2.41
Angle: 88.51
Altitude: 103.60
Satellites: 7
$PGTOP,11,2*6E
$GPGGA,030533.000,3754.4093,S,14508.0744,E,1,7,1.34,103.6,M,-4.1,M,,*5E
$GPRMC,030533.000,A,3754.4093,S,14508.0744,E,2.60,90.58,280317,,,A*4E
$PGTOP,11,2*6E
$GPGGA,030534.000,3754.4094,S,14508.0754,E,1,7,1.34,103.6,M,-4.1,M,,*5F
$GPRMC,030534.000,A,3754.4094,S,14508.0754,E,2.96,93.30,280317,,,A*4B

Time: 3:5:34.0
Date: 28/3/2017
Fix: 1 quality: 1
Location: 3754.4094S, 14508.0751E
Location (in degrees, works with Google Maps): -37.9068, 145.1346
Speed (knots): 2.96
Angle: 93.30
Altitude: 103.60
Satellites: 7
$PGTOP,11,2*6E
$GPGGA,030535.000,3754.4095,S,14508.0761,E,1,7,1.34,103.7,M,-4.1,M,,*58
$GPRMC,030535.000,A,3754.4095,S,14508.0761,E,2.22,98.05,280317,,,A*4F
$PGTOP,11,2*6E
$GPGGA,030536.000,3754.4097,S,14508.0767,E,1,7,1.34,103.7,M,-4.1,M,,*5F
$GPRMC,030536.000,A,3754.4097,S,14508.0767,E,2.75,94.38,280317,,,A*48

Time: 3:5:36.0
Date: 28/3/2017
Fix: 1 quality: 1
Location: 3754.4096S, 14508.0771E
Location (in degrees, works with Google Maps): -37.9068, 145.1346
Speed (knots): 2.75
Angle: 94.38
Altitude: 103.70
Satellites: 7
$PGTOP,11,2*6E
$GPGGA,030537.000,3754.4097,S,14508.0773,E,1,7,1.34,103.7,M,-4.1,M,,*5B
$GPRMC,030537.000,A,3754.4097,S,14508.0773,E,2.17,87.34,280317,,,A*46
$PGTOP,11,2*6E
$GPGGA,030538.000,3754.4097,S,14508.0780,E,1,7,1.34,103.7,M,-4.1,M,,*58
$GPRMC,030538.000,A,3754.4097,S,14508.0780,E,2.54,92.71,280317,,,A*47

Time: 3:5:38.0
Date: 28/3/2017
Fix: 1 quality: 1
Location: 3754.4096S, 14508.0781E
Location (in degrees, works with Google Maps): -37.9068, 145.1346
Speed (knots): 2.54
Angle: 92.71
Altitude: 103.70
Satellites: 7
$PGTOP,11,2*6E
$GPGGA,030539.000,3754.4096,S,14508.0788,E,1,7,1.34,103.8,M,-4.1,M,,*5F
$GPRMC,030539.000,A,3754.4096,S,14508.0788,E,2.44,86.97,280317,,,A*43
$PGTOP,11,2*6E
$GPGGA,030540.000,3754.4096,S,14508.0794,E,1,8,1.00,103.7,M,-4.1,M,,*5B
$GPRMC,030540.000,A,3754.4096,S,14508.0794,E,2.40,88.27,280317,,,A*41

Time: 3:5:40.0
Date: 28/3/2017
Fix: 1 quality: 1
Location: 3754.4096S, 14508.0791E
Location (in degrees, works with Google Maps): -37.9068, 145.1347
Speed (knots): 2.40
Angle: 88.27
Altitude: 103.70
Satellites: 8
$PGTOP,11,2*6E
$GPGGA,030541.000,3754.4096,S,14508.0800,E,1,8,1.00,103.7,M,-4.1,M,,*58
$GPRMC,030541.000,A,3754.4096,S,14508.0800,E,2.69,94.15,280317,,,A*45
$PGTOP,11,2*6E
$GPGGA,030542.000,3754.4096,S,14508.0809,E,1,8,1.00,103.7,M,-4.1,M,,*52
$GPRMC,030542.000,A,3754.4096,S,14508.0809,E,2.34,88.41,280317,,,A*4B

Time: 3:5:42.0
Date: 28/3/2017
Fix: 1 quality: 1
Location: 3754.4096S, 14508.0810E
Location (in degrees, works with Google Maps): -37.9068, 145.1347
Speed (knots): 2.34
Angle: 88.41
Altitude: 103.70
Satellites: 8
$PGTOP,11,2*6E
$GPGGA,030543.000,3754.4095,S,14508.0817,E,1,8,1.00,103.7,M,-4.1,M,,*5F
$GPRMC,030543.000,A,3754.4095,S,14508.0817,E,2.60,90.69,280317,,,A*44
$PGTOP,11,2*6E
$GPGGA,030544.000,3754.4094,S,14508.0826,E,1,8,1.00,103.7,M,-4.1,M,,*5B
$GPRMC,030544.000,A,3754.4094,S,14508.0826,E,2.66,88.64,280317,,,A*42

Time: 3:5:44.0
Date: 28/3/2017
Fix: 1 quality: 1
Location: 3754.4094S, 14508.0830E
Location (in degrees, works with Google Maps): -37.9068, 145.1347
Speed (knots): 2.66
Angle: 88.64
Altitude: 103.70
Satellites: 8
$PGTOP,11,2*6E
$GPGGA,030545.000,3754.4093,S,14508.0835,E,1,8,1.00,103.8,M,-4.1,M,,*50
$GPRMC,030545.000,A,3754.4093,S,14508.0835,E,2.73,89.82,280317,,,A*4B
$PGTOP,11,2*6E
$GPGGA,030546.000,3754.4093,S,14508.0844,E,1,8,1.00,103.8,M,-4.1,M,,*55
$GPRMC,030546.000,A,3754.4093,S,14508.0844,E,2.58,89.52,280317,,,A*4A

Time: 3:5:46.0
Date: 28/3/2017
Fix: 1 quality: 1
Location: 3754.4091S, 14508.0839E
Location (in degrees, works with Google Maps): -37.9068, 145.1347
Speed (knots): 2.58
Angle: 89.52
Altitude: 103.80
Satellites: 8
$PGTOP,11,2*6E
$GPGGA,030547.000,3754.4092,S,14508.0854,E,1,8,1.00,103.8,M,-4.1,M,,*54
$GPRMC,030547.000,A,3754.4092,S,14508.0854,E,2.67,89.90,280317,,,A*49
$PGTOP,11,2*6E
$GPGGA,030548.000,3754.4092,S,14508.0863,E,1,8,1.00,103.9,M,-4.1,M,,*5E
$GPRMC,030548.000,A,3754.4092,S,14508.0863,E,2.66,88.09,280317,,,A*42

Time: 3:5:48.0
Date: 28/3/2017
Fix: 1 quality: 1
Location: 3754.4091S, 14508.0859E
Location (in degrees, works with Google Maps): -37.9068, 145.1348
Speed (knots): 2.66
Angle: 88.09
Altitude: 103.90
Satellites: 8
$PGTOP,11,2*6E
$GPGGA,030549.000,3754.4091,S,14508.0873,E,1,8,1.00,103.9,M,-4.1,M,,*5D
$GPRMC,030549.000,A,3754.4091,S,14508.0873,E,2.66,89.08,280317,,,A*41
$PGTOP,11,2*6E
$GPGGA,030550.000,3754.4091,S,14508.0882,E,1,8,1.00,103.9,M,-4.1,M,,*5B
$GPRMC,030550.000,A,3754.4091,S,14508.0882,E,2.53,86.92,280317,,,A*4D

Time: 3:5:50.0
Date: 28/3/2017
Fix: 1 quality: 1
Location: 3754.4091S, 14508.0878E
Location (in degrees, works with Google Maps): -37.9068, 145.1348
Speed (knots): 2.53
Angle: 86.92
Altitude: 103.90
Satellites: 8
$PGTOP,11,2*6E
$GPGGA,030551.000,3754.4090,S,14508.0891,E,1,8,1.00,103.9,M,-4.1,M,,*59
$GPRMC,030551.000,A,3754.4090,S,14508.0891,E,2.63,87.36,280317,,,A*43
$PGTOP,11,2*6E
$GPGGA,030552.000,3754.4089,S,14508.0900,E,1,8,1.00,103.9,M,-4.1,M,,*5B
$GPRMC,030552.000,A,3754.4089,S,14508.0900,E,2.65,88.15,280317,,,A*49

Time: 3:5:52.0
Date: 28/3/2017
Fix: 1 quality: 1
Location: 3754.4089S, 14508.0898E
Location (in degrees, works with Google Maps): -37.9068, 145.1348
Speed (knots): 2.65
Angle: 88.15
Altitude: 103.90
Satellites: 8
$PGTOP,11,2*6E
$GPGGA,030553.000,3754.4088,S,14508.0910,E,1,8,1.00,103.9,M,-4.1,M,,*5A
$GPRMC,030553.000,A,3754.4088,S,14508.0910,E,2.75,89.79,280317,,,A*42
$PGTOP,11,2*6E
$GPGGA,030554.000,3754.4087,S,14508.0919,E,1,8,1.00,103.9,M,-4.1,M,,*5B
$GPRMC,030554.000,A,3754.4087,S,14508.0919,E,2.65,89.74,280317,,,A*4F

Time: 3:5:54.0
Date: 28/3/2017
Fix: 1 quality: 1
Location: 3754.4086S, 14508.0917E
Location (in degrees, works with Google Maps): -37.9068, 145.1349
Speed (knots): 2.65
Angle: 89.74
Altitude: 103.90
Satellites: 8
$PGTOP,11,2*6E
$GPGGA,030555.000,3754.4086,S,14508.0928,E,1,8,1.00,103.8,M,-4.1,M,,*58
$GPRMC,030555.000,A,3754.4086,S,14508.0928,E,2.65,88.82,280317,,,A*45
$PGTOP,11,2*6E
$GPGGA,030556.000,3754.4086,S,14508.0938,E,1,8,1.00,103.8,M,-4.1,M,,*5A
$GPRMC,030556.000,A,3754.4086,S,14508.0938,E,2.61,89.42,280317,,,A*4E

Time: 3:5:56.0
Date: 28/3/2017
Fix: 1 quality: 1
Location: 3754.4086S, 14508.0937E
Location (in degrees, works with Google Maps): -37.9068, 145.1349
Speed (knots): 2.61
Angle: 89.42
Altitude: 103.80
Satellites: 8
$PGTOP,11,2*6E
$GPGGA,030557.000,3754.4085,S,14508.0947,E,1,8,1.00,103.9,M,-4.1,M,,*51
$GPRMC,030557.000,A,3754.4085,S,14508.0947,E,2.67,89.22,280317,,,A*44
$PGTOP,11,2*6E
$GPGGA,030558.000,3754.4085,S,14508.0956,E,1,8,1.00,103.9,M,-4.1,M,,*5E
$GPRMC,030558.000,A,3754.4085,S,14508.0956,E,2.67,88.27,280317,,,A*4F

Time: 3:5:58.0
Date: 28/3/2017
Fix: 1 quality: 1
Location: 3754.4084S, 14508.0957E
Location (in degrees, works with Google Maps): -37.9068, 145.1349
Speed (knots): 2.67
Angle: 88.27
Altitude: 103.90
Satellites: 8
$PGTOP,11,2*6E
$GPGGA,030559.000,3754.4084,S,14508.0966,E,1,8,1.00,103.9,M,-4.1,M,,*5D
$GPRMC,030559.000,A,3754.4084,S,14508.0966,E,2.67,87.61,280317,,,A*41
$PGTOP,11,2*6E
$GPGGA,030600.000,3754.4083,S,14508.0976,E,1,8,1.00,103.9,M,-4.1,M,,*54
$GPRMC,030600.000,A,3754.4083,S,14508.0976,E,2.71,90.30,280317,,,A*4D

Time: 3:6:0.0
Date: 28/3/2017
Fix: 1 quality: 1
Location: 3754.4082S, 14508.0976E
Location (in degrees, works with Google Maps): -37.9068, 145.1350
Speed (knots): 2.71
Angle: 90.30
Altitude: 103.90
Satellites: 8
$PGTOP,11,2*6E
$GPGGA,030601.000,3754.4083,S,14508.0985,E,1,8,1.00,103.9,M,-4.1,M,,*59
$GPRMC,030601.000,A,3754.4083,S,14508.0985,E,2.67,89.41,280317,,,A*49
$PGTOP,11,2*6E
$GPGGA,030602.000,3754.4082,S,14508.0994,E,1,8,1.00,103.9,M,-4.1,M,,*5B
$GPRMC,030602.000,A,3754.4082,S,14508.0994,E,2.69,88.25,280317,,,A*46

Time: 3:6:2.0
Date: 28/3/2017
Fix: 1 quality: 1
Location: 3754.4082S, 14508.0996E
Location (in degrees, works with Google Maps): -37.9068, 145.1350
Speed (knots): 2.69
Angle: 88.25
Altitude: 103.90
Satellites: 8
$PGTOP,11,2*6E
$GPGGA,030603.000,3754.4082,S,14508.1003,E,1,8,1.00,104.0,M,-4.1,M,,*52
$GPRMC,030603.000,A,3754.4082,S,14508.1003,E,2.54,88.62,280317,,,A*4C
$PGTOP,11,2*6E
$GPGGA,030604.000,3754.4081,S,14508.1012,E,1,8,1.00,104.1,M,-4.1,M,,*57
$GPRMC,030604.000,A,3754.4081,S,14508.1012,E,2.53,89.37,280317,,,A*4E

Time: 3:6:4.0
Date: 28/3/2017
Fix: 1 quality: 1
Location: 3754.4082S, 14508.1015E
Location (in degrees, works with Google Maps): -37.9068, 145.1350
Speed (knots): 2.53
Angle: 89.37
Altitude: 104.10
Satellites: 8
$PGTOP,11,2*6E
$GPGGA,030605.000,3754.4081,S,14508.1021,E,1,8,1.00,104.1,M,-4.1,M,,*56
$GPRMC,030605.000,A,3754.4081,S,14508.1021,E,2.47,88.46,280317,,,A*4D
$PGTOP,11,2*6E
$GPGGA,030606.000,3754.4081,S,14508.1029,E,1,8,1.00,104.1,M,-4.1,M,,*5D
$GPRMC,030606.000,A,3754.4081,S,14508.1029,E,2.44,86.74,280317,,,A*4A

Time: 3:6:6.0
Date: 28/3/2017
Fix: 1 quality: 1
Location: 3754.4082S, 14508.1025E
Location (in degrees, works with Google Maps): -37.9068, 145.1350
Speed (knots): 2.44
Angle: 86.74
Altitude: 104.10
Satellites: 8
$PGTOP,11,2*6E
$GPGGA,030607.000,3754.4081,S,14508.1037,E,1,8,1.00,104.2,M,-4.1,M,,*50
$GPRMC,030607.000,A,3754.4081,S,14508.1037,E,2.38,88.70,280317,,,A*45
$PGTOP,11,2*6E
$GPGGA,030608.000,3754.4081,S,14508.1045,E,1,8,1.00,104.2,M,-4.1,M,,*5A
$GPRMC,030608.000,A,3754.4081,S,14508.1045,E,2.22,89.35,280317,,,A*44

Time: 3:6:8.0
Date: 28/3/2017
Fix: 1 quality: 1
Location: 3754.4082S, 14508.1044E
Location (in degrees, works with Google Maps): -37.9068, 145.1351
Speed (knots): 2.22
Angle: 89.35
Altitude: 104.20
Satellites: 8
$PGTOP,11,2*6E
$GPGGA,030609.000,3754.4080,S,14508.1052,E,1,8,1.00,104.2,M,-4.1,M,,*5C
$GPRMC,030609.000,A,3754.4080,S,14508.1052,E,2.00,93.15,280317,,,A*4B
$PGTOP,11,2*6E
$GPGGA,030610.000,3754.4081,S,14508.1057,E,1,8,1.00,104.1,M,-4.1,M,,*53
$GPRMC,030610.000,A,3754.4081,S,14508.1057,E,0.48,98.00,280317,,,A*46

Time: 3:6:10.0
Date: 28/3/2017
Fix: 1 quality: 1
Location: 3754.4082S, 14508.1054E
Location (in degrees, works with Google Maps): -37.9068, 145.1351
Speed (knots): 0.48
Angle: 98.00
Altitude: 104.10
Satellites: 8
$PGTOP,11,2*6E
$GPGGA,030611.000,3754.4079,S,14508.1055,E,1,8,1.00,104.1,M,-4.1,M,,*57
$GPRMC,030611.000,A,3754.4079,S,14508.1055,E,0.89,309.22,280317,,,A*74
$PGTOP,11,2*6E
$GPGGA,030612.000,3754.4078,S,14508.1050,E,1,8,1.00,104.0,M,-4.1,M,,*51
$GPRMC,030612.000,A,3754.4078,S,14508.1050,E,1.47,286.83,280317,,,A*7D

Time: 3:6:12.0
Date: 28/3/2017
Fix: 1 quality: 1
Location: 3754.4077S, 14508.1054E
Location (in degrees, works with Google Maps): -37.9068, 145.1351
Speed (knots): 1.47
Angle: 286.83
Altitude: 104.00
Satellites: 8
$PGTOP,11,2*6E
$GPGGA,030613.000,3754.4077,S,14508.1043,E,1,8,1.00,103.8,M,-4.1,M,,*52
$GPRMC,030613.000,A,3754.4077,S,14508.1043,E,2.47,264.19,280317,,,A*7D
$PGTOP,11,2*6E
$GPGGA,030614.000,3754.4078,S,14508.1034,E,1,8,1.00,103.7,M,-4.1,M,,*55
$GPRMC,030614.000,A,3754.4078,S,14508.1034,E,2.01,269.41,280317,,,A*77

Time: 3:6:14.0
Date: 28/3/2017
Fix: 1 quality: 1
Location: 3754.4077S, 14508.1035E
Location (in degrees, works with Google Maps): -37.9068, 145.1351
Speed (knots): 2.01
Angle: 269.41
Altitude: 103.70
Satellites: 8
$PGTOP,11,2*6E
$GPGGA,030615.000,3754.4077,S,14508.1027,E,1,8,1.00,103.7,M,-4.1,M,,*59
$GPRMC,030615.000,A,3754.4077,S,14508.1027,E,1.35,270.27,280317,,,A*77
$PGTOP,11,2*6E
$GPGGA,030616.000,3754.4078,S,14508.1021,E,1,8,1.00,103.7,M,-4.1,M,,*53
$GPRMC,030616.000,A,3754.4078,S,14508.1021,E,1.79,264.03,280317,,,A*76

Time: 3:6:16.0
Date: 28/3/2017
Fix: 1 quality: 1
Location: 3754.4077S, 14508.1025E
Location (in degrees, works with Google Maps): -37.9068, 145.1350
Speed (knots): 1.79
Angle: 264.03
Altitude: 103.70
Satellites: 8
$PGTOP,11,2*6E
$GPGGA,030617.000,3754.4078,S,14508.1016,E,1,8,1.00,103.6,M,-4.1,M,,*57
$GPRMC,030617.000,A,3754.4078,S,14508.1016,E,1.31,272.87,280317,,,A*74
$PGTOP,11,2*6E
$GPGGA,030618.000,3754.4078,S,14508.1010,E,1,8,1.00,103.5,M,-4.1,M,,*5D
$GPRMC,030618.000,A,3754.4078,S,14508.1010,E,1.64,274.79,280317,,,A*7A

Time: 3:6:18.0
Date: 28/3/2017
Fix: 1 quality: 1
Location: 3754.4077S, 14508.1005E
Location (in degrees, works with Google Maps): -37.9068, 145.1350
Speed (knots): 1.64
Angle: 274.79
Altitude: 103.50
Satellites: 8
$PGTOP,11,2*6E
$GPGGA,030619.000,3754.4078,S,14508.1002,E,1,8,1.00,103.4,M,-4.1,M,,*5E
$GPRMC,030619.000,A,3754.4078,S,14508.1002,E,2.60,268.83,280317,,,A*77
$PGTOP,11,2*6E
$GPGGA,030620.000,3754.4078,S,14508.0993,E,1,8,1.00,103.4,M,-4.1,M,,*54
$GPRMC,030620.000,A,3754.4078,S,14508.0993,E,2.61,269.66,280317,,,A*76

Time: 3:6:20.0
Date: 28/3/2017
Fix: 1 quality: 1
Location: 3754.4077S, 14508.0996E
Location (in degrees, works with Google Maps): -37.9068, 145.1350
Speed (knots): 2.61
Angle: 269.66
Altitude: 103.40
Satellites: 8
$PGTOP,11,2*6E
$GPGGA,030621.000,3754.4078,S,14508.0983,E,1,8,1.00,103.3,M,-4.1,M,,*53
$GPRMC,030621.000,A,3754.4078,S,14508.0983,E,2.64,270.01,280317,,,A*7A
$PGTOP,11,2*6E
$GPGGA,030622.000,3754.4078,S,14508.0974,E,1,8,1.00,103.3,M,-4.1,M,,*58
$GPRMC,030622.000,A,3754.4078,S,14508.0974,E,2.62,268.02,280317,,,A*7D

Time: 3:6:22.0
Date: 28/3/2017
Fix: 1 quality: 1
Location: 3754.4077S, 14508.0976E
Location (in degrees, works with Google Maps): -37.9068, 145.1350
Speed (knots): 2.62
Angle: 268.02
Altitude: 103.30
Satellites: 8
$PGTOP,11,2*6E
$GPGGA,030623.000,3754.4079,S,14508.0964,E,1,8,1.00,103.4,M,-4.1,M,,*5E
$GPRMC,030623.000,A,3754.4079,S,14508.0964,E,2.72,269.69,280317,,,A*71
$PGTOP,11,2*6E
$GPGGA,030624.000,3754.4079,S,14508.0954,E,1,8,1.00,103.4,M,-4.1,M,,*5A
$GPRMC,030624.000,A,3754.4079,S,14508.0954,E,2.70,269.10,280317,,,A*79

Time: 3:6:24.0
Date: 28/3/2017
Fix: 1 quality: 1
Location: 3754.4079S, 14508.0957E
Location (in degrees, works with Google Maps): -37.9068, 145.1349
Speed (knots): 2.70
Angle: 269.10
Altitude: 103.40
Satellites: 8
$PGTOP,11,2*6E
$GPGGA,030625.000,3754.4079,S,14508.0944,E,1,8,1.00,103.4,M,-4.1,M,,*5A
$GPRMC,030625.000,A,3754.4079,S,14508.0944,E,2.59,266.95,280317,,,A*70
$PGTOP,11,2*6E
$GPGGA,030626.000,3754.4079,S,14508.0935,E,1,8,1.00,103.4,M,-4.1,M,,*5F
$GPRMC,030626.000,A,3754.4079,S,14508.0935,E,2.51,271.32,280317,,,A*76

Time: 3:6:26.0
Date: 28/3/2017
Fix: 1 quality: 1
Location: 3754.4079S, 14508.0937E
Location (in degrees, works with Google Maps): -37.9068, 145.1349
Speed (knots): 2.51
Angle: 271.32
Altitude: 103.40
Satellites: 8
$PGTOP,11,2*6E
$GPGGA,030627.000,3754.4079,S,14508.0926,E,1,8,1.00,103.4,M,-4.1,M,,*5C
$GPRMC,030627.000,A,3754.4079,S,14508.0926,E,2.53,273.33,280317,,,A*74
$PGTOP,11,2*6E
$GPGGA,030628.000,3754.4079,S,14508.0917,E,1,8,1.00,103.4,M,-4.1,M,,*51
$GPRMC,030628.000,A,3754.4079,S,14508.0917,E,2.62,270.01,280317,,,A*79

Time: 3:6:28.0
Date: 28/3/2017
Fix: 1 quality: 1
Location: 3754.4079S, 14508.0917E
Location (in degrees, works with Google Maps): -37.9068, 145.1349
Speed (knots): 2.62
Angle: 270.01
Altitude: 103.40
Satellites: 8
$PGTOP,11,2*6E
$GPGGA,030629.000,3754.4079,S,14508.0908,E,1,8,1.00,103.4,M,-4.1,M,,*5E
$GPRMC,030629.000,A,3754.4079,S,14508.0908,E,2.49,266.57,280317,,,A*7B
$PGTOP,11,2*6E
$GPGGA,030630.000,3754.4080,S,14508.0899,E,1,8,1.00,103.3,M,-4.1,M,,*5E
$GPRMC,030630.000,A,3754.4080,S,14508.0899,E,2.50,266.29,280317,,,A*7D

Time: 3:6:30.0
Date: 28/3/2017
Fix: 1 quality: 1
Location: 3754.4079S, 14508.0898E
Location (in degrees, works with Google Maps): -37.9068, 145.1348
Speed (knots): 2.50
Angle: 266.29
Altitude: 103.30
Satellites: 8
$PGTOP,11,2*6E
$GPGGA,030631.000,3754.4080,S,14508.0889,E,1,8,1.00,103.3,M,-4.1,M,,*5E
$GPRMC,030631.000,A,3754.4080,S,14508.0889,E,2.66,266.44,280317,,,A*73
$PGTOP,11,2*6E
$GPGGA,030632.000,3754.4081,S,14508.0880,E,1,8,1.00,103.4,M,-4.1,M,,*52
$GPRMC,030632.000,A,3754.4081,S,14508.0880,E,2.49,270.95,280317,,,A*7E

Time: 3:6:32.0
Date: 28/3/2017
Fix: 1 quality: 1
Location: 3754.4082S, 14508.0878E
Location (in degrees, works with Google Maps): -37.9068, 145.1348
Speed (knots): 2.49
Angle: 270.95
Altitude: 103.40
Satellites: 8
$PGTOP,11,2*6E
$GPGGA,030633.000,3754.4081,S,14508.0871,E,1,9,0.95,103.4,M,-4.1,M,,*51
$GPRMC,030633.000,A,3754.4081,S,14508.0871,E,2.65,268.39,280317,,,A*70
$PGTOP,11,2*6E
$GPGGA,030634.000,3754.4081,S,14508.0862,E,1,9,0.95,103.3,M,-4.1,M,,*53
$GPRMC,030634.000,A,3754.4081,S,14508.0862,E,2.50,269.51,280317,,,A*7C

Time: 3:6:34.0
Date: 28/3/2017
Fix: 1 quality: 1
Location: 3754.4082S, 14508.0859E
Location (in degrees, works with Google Maps): -37.9068, 145.1348
Speed (knots): 2.50
Angle: 269.51
Altitude: 103.30
Satellites: 9
$PGTOP,11,2*6E
$GPGGA,030635.000,3754.4081,S,14508.0853,E,1,9,0.95,103.4,M,-4.1,M,,*57
$GPRMC,030635.000,A,3754.4081,S,14508.0853,E,2.57,269.95,280317,,,A*70
$PGTOP,11,2*6E
$GPGGA,030636.000,3754.4082,S,14508.0843,E,1,9,0.95,103.4,M,-4.1,M,,*56
$GPRMC,030636.000,A,3754.4082,S,14508.0843,E,2.61,268.77,280317,,,A*79

Time: 3:6:36.0
Date: 28/3/2017
Fix: 1 quality: 1
Location: 3754.4082S, 14508.0839E
Location (in degrees, works with Google Maps): -37.9068, 145.1347
Speed (knots): 2.61
Angle: 268.77
Altitude: 103.40
Satellites: 9
$PGTOP,11,2*6E
$GPGGA,030637.000,3754.4082,S,14508.0834,E,1,9,0.95,103.4,M,-4.1,M,,*57
$GPRMC,030637.000,A,3754.4082,S,14508.0834,E,2.56,269.68,280317,,,A*73
$PGTOP,11,2*6E
$GPGGA,030638.000,3754.4082,S,14508.0825,E,1,9,0.95,103.4,M,-4.1,M,,*58
$GPRMC,030638.000,A,3754.4082,S,14508.0825,E,2.51,267.58,280317,,,A*76

Time: 3:6:38.0
Date: 28/3/2017
Fix: 1 quality: 1
Location: 3754.4082S, 14508.0820E
Location (in degrees, works with Google Maps): -37.9068, 145.1347
Speed (knots): 2.51
Angle: 267.58
Altitude: 103.40
Satellites: 9
$PGTOP,11,2*6E
$GPGGA,030639.000,3754.4083,S,14508.0816,E,1,9,0.95,103.5,M,-4.1,M,,*59
$GPRMC,030639.000,A,3754.4083,S,14508.0816,E,2.58,267.45,280317,,,A*73
$PGTOP,11,2*6E
$GPGGA,030640.000,3754.4083,S,14508.0807,E,1,9,0.95,103.6,M,-4.1,M,,*54
$GPRMC,030640.000,A,3754.4083,S,14508.0807,E,2.66,269.14,280317,,,A*7A

Time: 3:6:40.0
Date: 28/3/2017
Fix: 1 quality: 1
Location: 3754.4082S, 14508.0810E
Location (in degrees, works with Google Maps): -37.9068, 145.1347
Speed (knots): 2.66
Angle: 269.14
Altitude: 103.60
Satellites: 9
$PGTOP,11,2*6E
$GPGGA,030641.000,3754.4083,S,14508.0798,E,1,9,0.95,103.6,M,-4.1,M,,*5C
$GPRMC,030641.000,A,3754.4083,S,14508.0798,E,2.60,268.17,280317,,,A*76
$PGTOP,11,2*6E
$GPGGA,030642.000,3754.4083,S,14508.0788,E,1,9,0.95,103.6,M,-4.1,M,,*5E
$GPRMC,030642.000,A,3754.4083,S,14508.0788,E,2.60,267.49,280317,,,A*70

Time: 3:6:42.0
Date: 28/3/2017
Fix: 1 quality: 1
Location: 3754.4082S, 14508.0791E
Location (in degrees, works with Google Maps): -37.9068, 145.1347
Speed (knots): 2.60
Angle: 267.49
Altitude: 103.60
Satellites: 9
$PGTOP,11,2*6E
$GPGGA,030643.000,3754.4084,S,14508.0779,E,1,9,0.95,103.7,M,-4.1,M,,*57
$GPRMC,030643.000,A,3754.4084,S,14508.0779,E,2.71,270.80,280317,,,A*7B
$PGTOP,11,2*6E
$GPGGA,030644.000,3754.4083,S,14508.0769,E,1,8,1.21,103.7,M,-4.1,M,,*59
$GPRMC,030644.000,A,3754.4083,S,14508.0769,E,2.72,271.00,280317,,,A*70

Time: 3:6:44.0
Date: 28/3/2017
Fix: 1 quality: 1
Location: 3754.4082S, 14508.0771E
Location (in degrees, works with Google Maps): -37.9068, 145.1346
Speed (knots): 2.72
Angle: 271.00
Altitude: 103.70
Satellites: 8
$PGTOP,11,2*6E
$GPGGA,030645.000,3754.4083,S,14508.0760,E,1,9,0.95,103.7,M,-4.1,M,,*5E
$GPRMC,030645.000,A,3754.4083,S,14508.0760,E,2.57,272.76,280317,,,A*7D
$PGTOP,11,2*6E
$GPGGA,030646.000,3754.4083,S,14508.0750,E,1,9,0.95,103.7,M,-4.1,M,,*5E
$GPRMC,030646.000,A,3754.4083,S,14508.0750,E,2.56,271.09,280317,,,A*77

Time: 3:6:46.0
Date: 28/3/2017
Fix: 1 quality: 1
Location: 3754.4082S, 14508.0751E
Location (in degrees, works with Google Maps): -37.9068, 145.1346
Speed (knots): 2.56
Angle: 271.09
Altitude: 103.70
Satellites: 9
$PGTOP,11,2*6E
$GPGGA,030647.000,3754.4083,S,14508.0741,E,1,9,0.95,103.8,M,-4.1,M,,*50
$GPRMC,030647.000,A,3754.4083,S,14508.0741,E,2.55,267.38,280317,,,A*70
$PGTOP,11,2*6E
$GPGGA,030648.000,3754.4083,S,14508.0732,E,1,9,0.95,103.8,M,-4.1,M,,*5B
$GPRMC,030648.000,A,3754.4083,S,14508.0732,E,2.53,267.64,280317,,,A*74

Time: 3:6:48.0
Date: 28/3/2017
Fix: 1 quality: 1
Location: 3754.4082S, 14508.0732E
Location (in degrees, works with Google Maps): -37.9068, 145.1345
Speed (knots): 2.53
Angle: 267.64
Altitude: 103.80
Satellites: 9
$PGTOP,11,2*6E
$GPGGA,030649.000,3754.4083,S,14508.0723,E,1,9,0.95,103.8,M,-4.1,M,,*5A
$GPRMC,030649.000,A,3754.4083,S,14508.0723,E,2.57,270.08,280317,,,A*7D
$PGTOP,11,2*6E
$GPGGA,030650.000,3754.4083,S,14508.0713,E,1,9,0.95,103.8,M,-4.1,M,,*51
$GPRMC,030650.000,A,3754.4083,S,14508.0713,E,2.53,267.48,280317,,,A*70

Time: 3:6:50.0
Date: 28/3/2017
Fix: 1 quality: 1
Location: 3754.4082S, 14508.0712E
Location (in degrees, works with Google Maps): -37.9068, 145.1345
Speed (knots): 2.53
Angle: 267.48
Altitude: 103.80
Satellites: 9
$PGTOP,11,2*6E
$GPGGA,030651.000,3754.4083,S,14508.0704,E,1,9,0.95,103.7,M,-4.1,M,,*59
$GPRMC,030651.000,A,3754.4083,S,14508.0704,E,2.37,269.06,280317,,,A*71
$PGTOP,11,2*6E
$GPGGA,030652.000,3754.4085,S,14508.0696,E,1,9,0.95,103.5,M,-4.1,M,,*54
$GPRMC,030652.000,A,3754.4085,S,14508.0696,E,2.21,247.42,280317,,,A*75

Time: 3:6:52.0
Date: 28/3/2017
Fix: 1 quality: 1
Location: 3754.4084S, 14508.0693E
Location (in degrees, works with Google Maps): -37.9068, 145.1345
Speed (knots): 2.21
Angle: 247.42
Altitude: 103.50
Satellites: 9
$PGTOP,11,2*6E
$GPGGA,030653.000,3754.4087,S,14508.0690,E,1,9,0.95,103.3,M,-4.1,M,,*57
$GPRMC,030653.000,A,3754.4087,S,14508.0690,E,1.69,239.98,280317,,,A*71
$PGTOP,11,2*6E
$GPGGA,030654.000,3754.4089,S,14508.0686,E,1,9,0.95,103.1,M,-4.1,M,,*5B
$GPRMC,030654.000,A,3754.4089,S,14508.0686,E,0.85,242.30,280317,,,A*72

Time: 3:6:54.0
Date: 28/3/2017
Fix: 1 quality: 1
Location: 3754.4089S, 14508.0683E
Location (in degrees, works with Google Maps): -37.9068, 145.1345
Speed (knots): 0.85
Angle: 242.30
Altitude: 103.10
Satellites: 9
$PGTOP,11,2*6E
$GPGGA,030655.000,3754.4091,S,14508.0684,E,1,9,0.95,102.9,M,-4.1,M,,*58
$GPRMC,030655.000,A,3754.4091,S,14508.0684,E,0.93,221.61,280317,,,A*7E
$PGTOP,11,2*6E
$GPGGA,030656.000,3754.4091,S,14508.0684,E,1,9,0.95,102.7,M,-4.1,M,,*55
$GPRMC,030656.000,A,3754.4091,S,14508.0684,E,0.45,230.08,280317,,,A*79

Time: 3:6:56.0
Date: 28/3/2017
Fix: 1 quality: 1
Location: 3754.4091S, 14508.0683E
Location (in degrees, works with Google Maps): -37.9068, 145.1345
Speed (knots): 0.45
Angle: 230.08
Altitude: 102.70
Satellites: 9
$PGTOP,11,2*6E
$GPGGA,030657.000,3754.4090,S,14508.0685,E,1,9,0.95,102.8,M,-4.1,M,,*5B
$GPRMC,030657.000,A,3754.4090,S,14508.0685,E,0.13,217.77,280317,,,A*76
